{
  "items": [
    {
      "id": "A1",
      "type": "booth",
      "name": "æ‚Ÿç©ºä¸­æ–‡",
      "subtitle": "Wukong Education",
      "lat": 37.266224,
      "lng": -122.012464,
      "description_file": "booths/A1.html"
    },
    {
      "id": "A2",
      "type": "booth",
      "name": "çº½çº¦äººå¯¿",
      "subtitle": "New York Life",
      "lat": 37.266285,
      "lng": -122.012464,
      "description_file": "booths/A2.html"
    },
    {
      "id": "A3",
      "type": "booth",
      "name": "XART",
      "subtitle": "æ‰­æ‰­æ£’å’Œå¥—åœˆ",
      "lat": 37.266346,
      "lng": -122.012464,
      "description_file": "booths/A3.html"
    },
    {
      "id": "A4",
      "type": "booth",
      "name": "MusicNBrian",
      "lat": 37.266407,
      "lng": -122.012464,
      "description_file": "booths/A4.html"
    },
    {
      "id": "A5",
      "type": "booth",
      "name": "Stratford Schools",
      "lat": 37.266469,
      "lng": -122.012464,
      "description_file": "booths/A5.html"
    },
    {
      "id": "A6",
      "type": "booth",
      "name": "æ ‘äººæˆå‰§è‰ºæœ¯ä¸­å¿ƒ",
      "subtitle": "Arboris Education and Performing Arts Center",
      "description": "æƒŠå–œç­¾åå”®ä¹¦æ´»åŠ¨ï¼",
      "lat": 37.26653,
      "lng": -122.012464
    },
    {
      "id": "B1",
      "type": "booth",
      "name": "X-Camp",
      "subtitle": "X-Camp Academy",
      "lat": 37.266224,
      "lng": -122.01228,
      "description_file": "booths/B1.html"
    },
    {
      "id": "B2",
      "type": "booth",
      "name": "DVA",
      "subtitle": "DaVinci Academy of Silicon Valley",
      "lat": 37.266285,
      "lng": -122.01228,
      "description_file": "booths/B2.html"
    },
    {
      "id": "B3",
      "type": "booth",
      "name": "æˆè°·å‰§ç¤¾",
      "subtitle": "Drama Valley",
      "lat": 37.266346,
      "lng": -122.01228,
      "description_file": "booths/B3.html"
    },
    {
      "id": "B4",
      "type": "booth",
      "name": "Intravast å¤œè§†ä»ª",
      "subtitle": "Intravast Night Vision Device",
      "description": "B4_description",
      "lat": 37.266407,
      "lng": -122.01228
    },
    {
      "id": "B5",
      "type": "booth",
      "name": "è¶£å‘³ç¼–ç»‡",
      "subtitle": "Sewing Fun",
      "description": "B5_description",
      "lat": 37.266469,
      "lng": -122.01228
    },
    {
      "id": "B6",
      "type": "booth",
      "name": "ç‹å¿—æ˜å¾‹å¸ˆäº‹åŠ¡æ‰€",
      "subtitle": "Pacific Coast Trial Law Firm",
      "lat": 37.26653,
      "lng": -122.01228,
      "description_file": "booths/B6.html"
    },
    {
      "id": "C1",
      "type": "booth",
      "name": "Rivian",
      "lat": 37.266224,
      "lng": -122.012186,
      "description_file": "booths/C1.html"
    },
    {
      "id": "C2",
      "type": "booth",
      "name": "å¤ç´",
      "subtitle": "Chinese Zither",
      "lat": 37.266285,
      "lng": -122.012186,
      "description_file": "booths/C2.html"
    },
    {
      "id": "C3",
      "type": "booth",
      "name": "ç³–ç”»ğŸ¨",
      "subtitle": "Sugar Painting",
      "lat": 37.266346,
      "lng": -122.012186,
      "token": 2,
      "description_file": "booths/C3.html"
    },
    {
      "id": "C4",
      "type": "booth",
      "name": "ç³–ç”»ğŸ¨",
      "subtitle": "Sugar Painting",
      "lat": 37.266407,
      "lng": -122.012186,
      "token": 2,
      "description_file": "booths/C4.html"
    },
    {
      "id": "C5",
      "type": "booth",
      "name": "æ‰‹ä½œå†°ç®±è´´ğŸ§µ",
      "subtitle": "Fridge Magnet Workshop",
      "lat": 37.266469,
      "lng": -122.012186,
      "token": 2,
      "description_file": "booths/C5.html"
    },
    {
      "id": "C6",
      "type": "booth",
      "name": "æ‰‹ä½œå†°ç®±è´´ğŸ§µ",
      "subtitle": "Fridge Magnet Workshop",
      "lat": 37.26653,
      "lng": -122.012186,
      "token": 2,
      "description_file": "booths/C6.html"
    },
    {
      "id": "C7",
      "type": "booth",
      "name": "ä¹¦æ³•ä½“éªŒğŸ–Œï¸",
      "subtitle": "Calligraphy",
      "lat": 37.266591,
      "lng": -122.012186,
      "token": 1,
      "description_file": "booths/C7.html"
    },
    {
      "id": "C8",
      "type": "booth",
      "name": "æ±‰æœæ‹ç…§",
      "subtitle": "Hanfu Styling",
      "lat": 37.266652,
      "lng": -122.012186,
      "description_file": "booths/C8.html"
    },
    {
      "id": "C9",
      "type": "booth",
      "name": "æ±‰æœæ‹ç…§",
      "subtitle": "Hanfu Styling",
      "lat": 37.266713,
      "lng": -122.012186,
      "description_file": "booths/C9.html"
    },
    {
      "id": "C10",
      "type": "booth",
      "name": "è½½æ­Œåœ¨è°·ç…§ç‰‡å¢™å±•ç¤ºğŸ“·",
      "subtitle": "ZGZG Photo Wall Display",
      "lat": 37.266774,
      "lng": -122.012186,
      "token": 2,
      "description": "è½½æ­Œåœ¨è°·ç¤¾åŒºçš„å›å¿†"
    },
    {
      "id": "D1",
      "type": "food",
      "name": "å®è—",
      "subtitle": "Imperial Treasure",
      "lat": 37.266224,
      "lng": -122.012067,
      "description_file": "booths/D1.html"
    },
    {
      "id": "D2",
      "type": "booth",
      "name": "æ¼†æ‰‡ğŸª­",
      "subtitle": "Marbling Fan",
      "lat": 37.266285,
      "lng": -122.012067,
      "token": 2,
      "description_file": "booths/D2.html"
    },
    {
      "id": "D3",
      "type": "booth",
      "name": "å‰ªçº¸",
      "subtitle": "Chinese Paper Cutting",
      "lat": 37.266346,
      "lng": -122.012067,
      "description_file": "booths/D3.html"
    },
    {
      "id": "D4",
      "type": "booth",
      "name": "å‰ªçº¸",
      "subtitle": "Chinese Paper Cutting",
      "lat": 37.266407,
      "lng": -122.012067,
      "description_file": "booths/D4.html"
    },
    {
      "id": "D5",
      "type": "booth",
      "name": "èµç«¹è€å¸ˆä¹¦ç”»ğŸ–¼ï¸",
      "subtitle": "Art Exhibition by Shangzhu",
      "lat": 37.266469,
      "lng": -122.012067,
      "description_file": "booths/D5.html"
    },
    {
      "id": "D6",
      "type": "booth",
      "name": "å¤©å·¥åŠğŸŒ¸",
      "subtitle": "Handmade Antique Workshop",
      "lat": 37.26653,
      "lng": -122.012067,
      "token": 2,
      "description_file": "booths/D6.html"
    },
    {
      "id": "D7",
      "type": "booth",
      "name": "å¤©å·¥åŠğŸŒ¸",
      "subtitle": "Handmade Antique Workshop",
      "lat": 37.266591,
      "lng": -122.012067,
      "token": 2,
      "description_file": "booths/D7.html"
    },
    {
      "id": "D8",
      "type": "booth",
      "name": "ç¯è°œğŸ®",
      "subtitle": "Lantern Riddles",
      "lat": 37.266652,
      "lng": -122.012067,
      "description_file": "booths/D8.html"
    },
    {
      "id": "D9",
      "type": "booth",
      "name": "äº‘é›†",
      "subtitle": "ZGZG-Club",
      "lat": 37.266713,
      "lng": -122.012067,
      "description_file": "booths/D9.html"
    },
    {
      "id": "D10",
      "type": "booth",
      "name": "è½½æ­Œåœ¨è°·ç…§ç‰‡å¢™å±•ç¤ºğŸ“·",
      "subtitle": "ZGZG Photo Wall Display",
      "lat": 37.266774,
      "lng": -122.012067,
      "description_file": "booths/D10.html"
    },
    {
      "id": "E1",
      "type": "food",
      "name": "å®è—",
      "subtitle": "Imperial Treasure",
      "lat": 37.266224,
      "lng": -122.011922,
      "description_file": "booths/E1.html"
    },
    {
      "id": "E2",
      "type": "food",
      "name": "Little Tummy",
      "subtitle": "BaoziğŸ¥Ÿ",
      "lat": 37.266285,
      "lng": -122.011922,
      "description_file": "booths/E2.html"
    },
    {
      "id": "E3",
      "type": "food",
      "name": "ç³–è‘«èŠ¦ğŸ­",
      "subtitle": "Candied hawthorn skewers",
      "lat": 37.266346,
      "lng": -122.011922,
      "description_file": "booths/E3.html"
    },
    {
      "id": "E4",
      "type": "food",
      "name": "Rich Lemon TeağŸµ",
      "lat": 37.266407,
      "lng": -122.011922,
      "description_file": "booths/E4.html"
    },
    {
      "id": "E5",
      "type": "booth",
      "name": "è€é¼ å·å¥¶é…ªğŸ§€",
      "subtitle": "Eat the Cheese",
      "lat": 37.266469,
      "lng": -122.011922,
      "description_file": "booths/E5.html"
    },
    {
      "id": "E6",
      "type": "booth",
      "name": "çŒ«è¿½è€é¼ ğŸ±",
      "subtitle": "Cat & Mouse",
      "lat": 37.26653,
      "lng": -122.011922,
      "description_file": "booths/E6.html"
    },
    {
      "id": "E7",
      "type": "booth",
      "name": "æ‰“åœ°é¼ ğŸ­",
      "subtitle": "Whac-A-Mole",
      "lat": 37.266591,
      "lng": -122.011922,
      "description_file": "booths/E7.html"
    },
    {
      "id": "E8",
      "type": "booth",
      "name": "åŠ¨ç”»DIYğŸ¬",
      "subtitle": "Phenakistoscope Animation",
      "lat": 37.266652,
      "lng": -122.011922,
      "token": 1,
      "description_file": "booths/E8.html"
    },
    {
      "id": "E9",
      "type": "booth",
      "name": "æ•…äº‹æ¢è‘«èŠ¦ğŸ“•",
      "subtitle": "A gourd for your story",
      "lat": 37.266713,
      "lng": -122.011922,
      "description_file": "booths/E9.html"
    },
    {
      "id": "E10",
      "type": "booth",
      "name": "ç”»è„¸ğŸ­ ",
      "subtitle": "Face Painting",
      "lat": 37.266774,
      "lng": -122.011922,
      "token": 2,
      "description_file": "booths/E10.html"
    },
    {
      "id": "F1",
      "type": "food",
      "name": "MC SushiğŸ£",
      "subtitle": "Food Truck",
      "lat": 37.266224,
      "lng": -122.011768,
      "description_file": "booths/F1.html"
    },
    {
      "id": "F2",
      "type": "food",
      "name": "Spartan TacoğŸŒ®",
      "subtitle": "Food Truck",
      "lat": 37.266285,
      "lng": -122.011768,
      "description_file": "booths/F2.html"
    },
    {
      "id": "F3",
      "type": "booth",
      "name": "åŠ¨æ¼«é¢å…·DIYğŸ­",
      "subtitle": "Mask Painting",
      "lat": 37.266346,
      "lng": -122.011768,
      "token": 1,
      "description_file": "booths/F3.html"
    },
    {
      "id": "F4",
      "type": "booth",
      "name": "æ—¶ç©ºéš§é“DIYğŸŒŒ",
      "subtitle": "Teleport",
      "lat": 37.266407,
      "lng": -122.011768,
      "token": 1,
      "description_file": "booths/F4.html"
    },
    {
      "id": "F5",
      "type": "booth",
      "name": "æŒ‡çº¹é‡‡é›†ğŸ«†",
      "subtitle": "Detect Finger Prints",
      "lat": 37.266469,
      "lng": -122.011768,
      "description_file": "booths/F5.html"
    },
    {
      "id": "F6",
      "type": "booth",
      "name": "è¯ç‰©æ‹¼å›¾å®¤ğŸ§©",
      "subtitle": "Mystery Solved",
      "lat": 37.26653,
      "lng": -122.011768,
      "token": 2,
      "description_file": "booths/F6.html"
    },
    {
      "id": "F7",
      "type": "booth",
      "name": "æ¤ç‰©æ‹“æŸ“DIYğŸƒ",
      "subtitle": "Plants Prints",
      "lat": 37.266591,
      "lng": -122.011768,
      "token": 1,
      "description_file": "booths/F7.html"
    },
    {
      "id": "F8",
      "type": "booth",
      "name": "è½¦è½½é¦™æ°´DIYğŸŒ¿",
      "subtitle": "Car Essential Oil",
      "lat": 37.266652,
      "lng": -122.011768,
      "token": 2,
      "description_file": "booths/F8.html"
    },
    {
      "id": "F9",
      "type": "prize",
      "name": "å…‘å¥–å¤„ğŸ",
      "subtitle": "Prize Redemption",
      "lat": 37.266713,
      "lng": -122.011768,
      "description_file": "booths/F9.html"
    },
    {
      "id": "F10",
      "type": "booth",
      "name": "ğŸ¥ é¼“åœˆ",
      "subtitle": "Drum Circle",
      "lat": 37.266774,
      "lng": -122.011768,
      "description_file": "booths/F10.html"
    },
    {
      "id": "restroom1",
      "type": "restroom",
      "name": "æ´—æ‰‹é—´ğŸš»",
      "subtitle": "Restrooms",
      "description": "æ›´å¤šæ´—æ‰‹é—´ä½ç½® More restroom locationsï¼š",
      "link_to_id": "restroom2",
      "link_display": "ç‚¹å‡»è¿™é‡Œ Click Here",
      "lat": 37.266933,
      "lng": -122.011802
    },
    {
      "id": "restroom2",
      "type": "restroom",
      "name": "West Valley Collegeæ´—æ‰‹é—´ğŸš»",
      "subtitle": "West Valley College Restrooms",
      "description": "ä½ç½®ï¼šWest Valley Collegeæ¥¼å†…\nLocation: Inside the building West Valley College buildings\n\næ›´å¤šæ´—æ‰‹é—´ä½ç½® More restroom locationsï¼š",
      "link_to_id": "restroom1",
      "link_display": "ç‚¹å‡»è¿™é‡Œ Click Here",
      "lat": 37.26454390141667,
      "lng": -122.0115421509249
    },
    {
      "id": "checkin",
      "type": "checkin",
      "name": "ç­¾åˆ°å¤„âœ…",
      "subtitle": "Check-In Booth",
      "lat": 37.266126,
      "lng": -122.012635
    },
    {
      "id": "medical",
      "type": "medical",
      "name": "æ€¥æ•‘è½¦ğŸ¥",
      "subtitle": "First Aid Station",
      "lat": 37.266658,
      "lng": -122.012586,
      "description_file": "booths/medical.html"
    },
    {
      "id": "foodtruck",
      "type": "foodtruck",
      "name": "å°±é¤åŒºğŸœ",
      "subtitle": "Picnic Area",
      "lat": 37.266133,
      "lng": -122.011843
    },
    {
      "id": "stage",
      "type": "stage",
      "name": "èŠ‚ç›®å•",
      "subtitle": "Show List",
      "description_file": "stage_data.html",
      "lat": 37.266892,
      "lng": -122.012361
    },
    {
      "id": "demo_drive",
      "type": "demo_drive",
      "name": "Rivianè¯•é©¾ğŸš—",
      "subtitle": "Rivian Demo Drive",
      "description_file": "booths/C1.html",
      "lat": 37.266066,
      "lng": -122.01292
    },
    {
      "id": "parking_a",
      "type": "parking",
      "name": "åœè½¦åŒºA",
      "subtitle": "Parking Lot A",
      "description": "ç­¾åˆ°å¤„é¢†å–åœè½¦ç¥¨\nPlease get parking ticket at Check-In Booth",
      "lat": 37.266657,
      "lng": -122.010792
    },
    {
      "id": "parking_b",
      "type": "parking",
      "name": "åœè½¦åŒºB",
      "subtitle": "Parking Lot B",
      "description": "ç­¾åˆ°å¤„é¢†å–åœè½¦ç¥¨\nPlease get parking ticket at Check-In Booth",
      "lat": 37.264884,
      "lng": -122.012975
    },
    {
      "id": "surprise",
      "type": "surprise",
      "name": "ç¥ç§˜ä½“éªŒåŒº",
      "subtitle": "Mystery",
      "description": "ç­‰ä½ æ¥æ¢ç´¢ï¼",
      "lat": 37.266236,
      "lng": -122.012834
    }
  ],
  "rows": [
    {
      "rowId": 1,
      "name": "North Row",
      "description": "Northern section of booths and facilities",
      "lat": 37.266129,
      "lng": -122.012282,
      "itemIds": [
        "booth1",
        "booth2"
      ]
    },
    {
      "rowId": 2,
      "name": "South Row",
      "description": "Southern section of booths and facilities",
      "lat": 37.266156,
      "lng": -122.011998,
      "itemIds": [
        "booth3"
      ]
    }
  ],
  "stories": [
    {
      "id": "cat_story",
      "name": "ğŸ±Cat",
      "itemIds": [
        "F1",
        "F2",
        "F3"
      ]
    },
    {
      "id": "anime_story",
      "name": "ğŸŒ¸Anime",
      "itemIds": [
        "B1",
        "B2"
      ]
    }
  ]
}