{
  "items": [
    {
      "id": "A1",
      "type": "booth",
      "name": "ÊÇüÁ©∫‰∏≠Êñá",
      "description": "A1_description",
      "lat": 37.266224,
      "lng": -122.012464
    },
    {
      "id": "A2",
      "type": "booth",
      "name": "Á∫ΩÁ∫¶‰∫∫ÂØø Sandy",
      "description": "A2_description",
      "lat": 37.266285,
      "lng": -122.012464
    },
    {
      "id": "A3",
      "type": "booth",
      "name": "XART‚ÄîÊâ≠Êâ≠Ê£íÂíåÂ•óÂúà",
      "description": "A3_description",
      "lat": 37.266346,
      "lng": -122.012464
    },
    {
      "id": "A4",
      "type": "booth",
      "name": "MusicNBrian",
      "description": "A4_description",
      "lat": 37.266407,
      "lng": -122.012464
    },
    {
      "id": "A5",
      "type": "booth",
      "name": "Stratford Schools",
      "description": "A5_description",
      "lat": 37.266469,
      "lng": -122.012464
    },
    {
      "id": "A6",
      "type": "booth",
      "name": "SJ Library",
      "description": "A6_description",
      "lat": 37.26653,
      "lng": -122.012464
    },
    {
      "id": "A7",
      "type": "booth",
      "name": "A7_name",
      "description": "A7_description",
      "lat": 37.266591,
      "lng": -122.012464
    },
    {
      "id": "A8",
      "type": "booth",
      "name": "A8_name",
      "description": "A8_description",
      "lat": 37.266652,
      "lng": -122.012464
    },
    {
      "id": "B1",
      "type": "booth",
      "name": "X-Camp",
      "description": "B1_description",
      "lat": 37.266224,
      "lng": -122.01228
    },
    {
      "id": "B2",
      "type": "booth",
      "name": "DVA",
      "description": "B2_description",
      "lat": 37.266285,
      "lng": -122.01228
    },
    {
      "id": "B3",
      "type": "booth",
      "name": "ÊàèË∞∑ÂâßÁ§æ",
      "description": "B3_description",
      "lat": 37.266346,
      "lng": -122.01228
    },
    {
      "id": "B4",
      "type": "booth",
      "name": "Intravast‚ÄîÂ§úËßÜ‰ª™",
      "description": "B4_description",
      "lat": 37.266407,
      "lng": -122.01228
    },
    {
      "id": "B5",
      "type": "booth",
      "name": "sewing Á§æÂõ¢",
      "description": "B5_description",
      "lat": 37.266469,
      "lng": -122.01228
    },
    {
      "id": "B6",
      "type": "booth",
      "name": "ÁéãÂøóÊòéÂæãÊâÄ",
      "description": "B6_description",
      "lat": 37.26653,
      "lng": -122.01228
    },
    {
      "id": "B7",
      "type": "booth",
      "name": "B7_name",
      "description": "B7_description",
      "lat": 37.266591,
      "lng": -122.01228
    },
    {
      "id": "B8",
      "type": "booth",
      "name": "B8_name",
      "description": "B8_description",
      "lat": 37.266652,
      "lng": -122.01228
    },
    {
      "id": "C1",
      "type": "food",
      "name": "Rivian",
      "description": "C1_description",
      "lat": 37.266224,
      "lng": -122.012186
    },
    {
      "id": "C2",
      "type": "food",
      "name": "Âè§Áê¥+Ââ™Á∫∏",
      "description": "C2_description",
      "lat": 37.266285,
      "lng": -122.012186
    },
    {
      "id": "C3",
      "type": "food",
      "name": "Á≥ñÁîª",
      "description": "C3_description",
      "lat": 37.266346,
      "lng": -122.012186
    },
    {
      "id": "C4",
      "type": "food",
      "name": "Á≥ñÁîª",
      "description": "C4_description",
      "lat": 37.266407,
      "lng": -122.012186
    },
    {
      "id": "C5",
      "type": "booth",
      "name": "ÂÜ∞ÁÆ±Ë¥¥",
      "description": "C5_description",
      "lat": 37.266469,
      "lng": -122.012186
    },
    {
      "id": "C6",
      "type": "booth",
      "name": "ÂÜ∞ÁÆ±Ë¥¥",
      "description": "C6_description",
      "lat": 37.26653,
      "lng": -122.012186
    },
    {
      "id": "C7",
      "type": "booth",
      "name": "‰π¶Áîª",
      "description": "C7_description",
      "lat": 37.266591,
      "lng": -122.012186
    },
    {
      "id": "C8",
      "type": "booth",
      "name": "Ê±âÊúçÊãçÁÖß",
      "description": "C8_description",
      "lat": 37.266652,
      "lng": -122.012186
    },
    {
      "id": "C9",
      "type": "booth",
      "name": "Ê±âÊúçÊãçÁÖß",
      "description": "C9_description",
      "lat": 37.266713,
      "lng": -122.012186
    },
    {
      "id": "C10",
      "type": "booth",
      "name": "Â§©Â∑•Âùä",
      "description": "C10_description",
      "lat": 37.266774,
      "lng": -122.012186
    },
    {
      "id": "C11",
      "type": "booth",
      "name": "Â§©Â∑•Âùä",
      "description": "C11_description",
      "lat": 37.266835,
      "lng": -122.012186
    },
    {
      "id": "C12",
      "type": "booth",
      "name": "C12_name",
      "description": "C12_description",
      "lat": 37.266897,
      "lng": -122.012186
    },
    {
      "id": "D1",
      "type": "food",
      "name": "ÂÆùËóè",
      "description": "D1_description",
      "lat": 37.266224,
      "lng": -122.012067
    },
    {
      "id": "D2",
      "type": "food",
      "name": "ÊºÜÊâá",
      "description": "D2_description",
      "lat": 37.266285,
      "lng": -122.012067
    },
    {
      "id": "D3",
      "type": "food",
      "name": "ÊºÜÊâá",
      "description": "D3_description",
      "lat": 37.266346,
      "lng": -122.012067
    },
    {
      "id": "D4",
      "type": "food",
      "name": "ÊºÜÊâá",
      "description": "D4_description",
      "lat": 37.266407,
      "lng": -122.012067
    },
    {
      "id": "D5",
      "type": "booth",
      "name": "ËµèÁ´πËÄÅÂ∏à‰π¶Áîª",
      "description": "D5_description",
      "lat": 37.266469,
      "lng": -122.012067
    },
    {
      "id": "D6",
      "type": "booth",
      "name": "Ââ™Á∫∏",
      "description": "D6_description",
      "lat": 37.26653,
      "lng": -122.012067
    },
    {
      "id": "D7",
      "type": "booth",
      "name": "Ââ™Á∫∏",
      "description": "D7_description",
      "lat": 37.266591,
      "lng": -122.012067
    },
    {
      "id": "D8",
      "type": "booth",
      "name": "‰π¶Ê≥ï",
      "description": "D8_description",
      "lat": 37.266652,
      "lng": -122.012067
    },
    {
      "id": "D9",
      "type": "booth",
      "name": "ÁÅØË∞ú",
      "description": "D9_description",
      "lat": 37.266713,
      "lng": -122.012067
    },
    {
      "id": "D10",
      "type": "booth",
      "name": "ÁÅØË∞ú",
      "description": "D10_description",
      "lat": 37.266774,
      "lng": -122.012067
    },
    {
      "id": "D11",
      "type": "booth",
      "name": "D11_name",
      "description": "D11_description",
      "lat": 37.266835,
      "lng": -122.012067
    },
    {
      "id": "D12",
      "type": "booth",
      "name": "D12_name",
      "description": "D12_description",
      "lat": 37.266897,
      "lng": -122.012067
    },
    {
      "id": "E1",
      "type": "food",
      "name": "ÂÆùËóè",
      "description": "E1_description",
      "lat": 37.266224,
      "lng": -122.011922
    },
    {
      "id": "E2",
      "type": "food",
      "name": "Little Tummy/Baozhi",
      "description": "E2_description",
      "lat": 37.266285,
      "lng": -122.011922
    },
    {
      "id": "E3",
      "type": "food",
      "name": "Tanghulu,",
      "description": "E3_description",
      "lat": 37.266346,
      "lng": -122.011922
    },
    {
      "id": "E4",
      "type": "food",
      "name": "Rich Lemon Tea",
      "description": "E4_description",
      "lat": 37.266407,
      "lng": -122.011922
    },
    {
      "id": "E5",
      "type": "booth",
      "name": "ËÄÅÈº†ÂÅ∑Â•∂ÈÖ™",
      "description": "E5_description",
      "lat": 37.266469,
      "lng": -122.011922
    },
    {
      "id": "E6",
      "type": "booth",
      "name": "Áå´ËøΩËÄÅÈº† Cat & Mouse",
      "description": "E6_description",
      "lat": 37.26653,
      "lng": -122.011922
    },
    {
      "id": "E7",
      "type": "booth",
      "name": "ÊâìÂú∞Èº† Whac-A-Mole",
      "description": "E7_description",
      "lat": 37.266591,
      "lng": -122.011922
    },
    {
      "id": "E8",
      "type": "booth",
      "name": "Âä®ÁîªDIY Phenakistoscope Animation",
      "description": "E8_description",
      "lat": 37.266652,
      "lng": -122.011922
    },
    {
      "id": "E9",
      "type": "booth",
      "name": "ÊïÖ‰∫ãÊç¢Ëë´Ëä¶ A gourd for your story",
      "description": "E9_description",
      "lat": 37.266713,
      "lng": -122.011922
    },
    {
      "id": "E10",
      "type": "booth",
      "name": "ÁîªËÑ∏ Face Painting",
      "description": "E10_description",
      "lat": 37.266774,
      "lng": -122.011922
    },
    {
      "id": "E11",
      "type": "booth",
      "name": "ÈºìÂúà Drum Circle",
      "description": "E11_description",
      "lat": 37.266835,
      "lng": -122.011922
    },
    {
      "id": "E12",
      "type": "booth",
      "name": "E12_name",
      "description": "E12_description",
      "lat": 37.266897,
      "lng": -122.011922
    },
    {
      "id": "F1",
      "type": "food",
      "name": "MC Sushi (Food Truck)",
      "description": "F1_description",
      "lat": 37.266224,
      "lng": -122.011768
    },
    {
      "id": "F2",
      "type": "food",
      "name": "Spartan Taco (Food Truck)",
      "description": "F2_description",
      "lat": 37.266285,
      "lng": -122.011768
    },
    {
      "id": "F3",
      "type": "food",
      "name": "Âä®Êº´Èù¢ÂÖ∑DIY Mask Painting",
      "description": "F3_description",
      "lat": 37.266346,
      "lng": -122.011768
    },
    {
      "id": "F4",
      "type": "food",
      "name": "Êó∂Á©∫ÈößÈÅìDIY Teleport",
      "description": "F4_description",
      "lat": 37.266407,
      "lng": -122.011768
    },
    {
      "id": "F5",
      "type": "booth",
      "name": "ÊåáÁ∫πÈááÈõÜ Detect Finger Prints",
      "description": "F5_description",
      "lat": 37.266469,
      "lng": -122.011768
    },
    {
      "id": "F6",
      "type": "booth",
      "name": "ËØÅÁâ©ÊãºÂõæÂÆ§ Mystery Solved",
      "description": "F6_description",
      "lat": 37.26653,
      "lng": -122.011768
    },
    {
      "id": "F7",
      "type": "booth",
      "name": "Ê§çÁâ©ÊãìÊüìDIY Plants Prints",
      "description": "F7_description",
      "lat": 37.266591,
      "lng": -122.011768
    },
    {
      "id": "F8",
      "type": "booth",
      "name": "ËΩ¶ËΩΩÈ¶ôÊ∞¥DIY Car Essential Oil DIY",
      "description": "F8_description",
      "lat": 37.266652,
      "lng": -122.011768
    },
    {
      "id": "F9",
      "type": "booth",
      "name": "ÂÖëÂ•ñ",
      "description": "F9_description",
      "lat": 37.266713,
      "lng": -122.011768
    },
    {
      "id": "F10",
      "type": "booth",
      "name": "‰π¶ÂΩ±Â©ÜÂ®ë-Êóß‰π¶‰∫§Êç¢",
      "description": "F10_description",
      "lat": 37.266774,
      "lng": -122.011768
    },
    {
      "id": "F11",
      "type": "booth",
      "name": "ËΩΩÊ≠åÂú®Ë∞∑ÁÖßÁâáÂ¢ôÂ±ïÁ§∫",
      "description": "F11_description",
      "lat": 37.266835,
      "lng": -122.011768
    },
    {
      "id": "F12",
      "type": "booth",
      "name": "F12_name",
      "description": "F12_description",
      "lat": 37.266897,
      "lng": -122.011768
    },
    {
      "id": "restroom1",
      "type": "restroom",
      "name": "Main Restrooms",
      "lat": 37.266527,
      "lng": -122.012896
    },
    {
      "id": "service",
      "type": "service",
      "name": "Volunteer Center",
      "lat": 37.266196,
      "lng": -122.012811
    },
    {
      "id": "checkin",
      "type": "checkin",
      "name": "Check-In Booth",
      "lat": 37.266126,
      "lng": -122.012635
    },
    {
      "id": "medical",
      "type": "medical",
      "name": "First Aid Station",
      "lat": 37.266217,
      "lng": -122.013056
    },
    {
      "id": "foodtruck",
      "type": "foodtruck",
      "name": "Food Truck Area",
      "lat": 37.266133,
      "lng": -122.011843
    },
    {
      "id": "stage",
      "type": "stage",
      "name": "Main Stage",
      "description_file": "stage_data.html",
      "lat": 37.266892,
      "lng": -122.012361
    }
  ],
  "rows": [
    {
      "rowId": 1,
      "name": "North Row",
      "description": "Northern section of booths and facilities",
      "lat": 37.266129,
      "lng": -122.012282,
      "itemIds": [
        "booth1",
        "booth2"
      ]
    },
    {
      "rowId": 2,
      "name": "South Row",
      "description": "Southern section of booths and facilities",
      "lat": 37.266156,
      "lng": -122.011998,
      "itemIds": [
        "booth3"
      ]
    }
  ],
  "stories": [
    {
      "id": "cat_story",
      "name": "üê±Cat",
      "itemIds": [
        "F1",
        "F2",
        "F3"
      ]
    },
    {
      "id": "anime_story",
      "name": "üå∏Anime",
      "itemIds": [
        "B1",
        "B2"
      ]
    }
  ]
}